{"type":"FeatureCollection","features":[{"type":"Feature","id":1,"geometry":{"type":"Point","coordinates":[-75.16471921904143,40.034500105967766]},"properties":{"OBJECTID":1,"NAME":"Covenant House Health Services","ORGANIZATION":"Covenant","ZIP":19144,"PHONE":"215-844-0181","WEBSITE":"http://covenanthousehealth.org/","DENTAL_PHONE":"N/A","FULL_ADDRESS":"251 East Bringhurst Street","GlobalID":"82558d47-9abd-43b2-9eaf-2abbbb30b34b"}},{"type":"Feature","id":2,"geometry":{"type":"Point","coordinates":[-75.1789794224699,40.067374838258196]},"properties":{"OBJECTID":2,"NAME":"Mt. Pleasant Medical Center","ORGANIZATION":"Covenant","ZIP":19150,"PHONE":"215-248-7560","WEBSITE":"http://covenanthousehealth.org/","DENTAL_PHONE":"N/A","FULL_ADDRESS":"8125 Stenton Avenue","GlobalID":"c56b9e27-7bbd-4be2-8f68-a22a0df7b834"}},{"type":"Feature","id":3,"geometry":{"type":"Point","coordinates":[-75.16140926883327,39.96701782914281]},"properties":{"OBJECTID":3,"NAME":"Fairmount Primary Care Center","ORGANIZATION":"DVCH","ZIP":19130,"PHONE":"215-235-9600","WEBSITE":"http://www.dvch.org/dvch/Locations/FairmountPrimaryCareCenter/tabid/100/language/en-US/Default.aspx","DENTAL_PHONE":"215-235-9600","FULL_ADDRESS":"1412 Fairmount Avenue","GlobalID":"4ee93194-53de-4343-9bfa-2b1c6df33d56"}},{"type":"Feature","id":4,"geometry":{"type":"Point","coordinates":[-75.18387150456599,39.95305549633053]},"properties":{"OBJECTID":4,"NAME":"Fairmount Primary Care Center at Horizon House","ORGANIZATION":"DVCH","ZIP":19104,"PHONE":"215-222-2466","WEBSITE":"http://www.dvch.org/dvch/Locations/FairmountPrimaryCareCenteratHorizonHouse/tabid/101/language/en-US/Default.aspx","DENTAL_PHONE":"N/A","FULL_ADDRESS":"120 S. 30th Street","GlobalID":"eafd5aa9-e3fe-481d-9e7e-f5564b9d8fc3"}},{"type":"Feature","id":5,"geometry":{"type":"Point","coordinates":[-75.16276294663619,39.97183187587022]},"properties":{"OBJECTID":5,"NAME":"Fairmount Primary Care Center at St. Josephs Hospital","ORGANIZATION":"DVCH","ZIP":19130,"PHONE":"215-827-8010","WEBSITE":"http://www.dvch.org/dvch/Locations/FairmountPrimaryCareCenteratStJosephs/tabid/134/language/en-US/Default.aspx","DENTAL_PHONE":"N/A","FULL_ADDRESS":"1600 W. Girard Avenue","GlobalID":"3ac75d0d-acbb-4795-953e-277d0e6c7a83"}},{"type":"Feature","id":6,"geometry":{"type":"Point","coordinates":[-75.13645672480513,39.99953535094071]},"properties":{"OBJECTID":6,"NAME":"Maria de los Santos Health Center","ORGANIZATION":"DVCH","ZIP":19133,"PHONE":"215-291-2500","WEBSITE":"http://www.dvch.org/dvch/Locations/MariadelosSantosHealthCenter/tabid/102/language/en-US/Default.aspx","DENTAL_PHONE":"215-291-2500","FULL_ADDRESS":"401-455 West Allegheny Ave","GlobalID":"1e8bce2e-6b32-4336-a7b0-ca09f6efeec0"}},{"type":"Feature","id":7,"geometry":{"type":"Point","coordinates":[-75.11041054115553,40.01192687170583]},"properties":{"OBJECTID":7,"NAME":"Parkview OB/Gyn & Podiatry Services","ORGANIZATION":"DVCH","ZIP":19124,"PHONE":"215-537-7695","WEBSITE":"http://dvch.org/dvch/Locations/ParkviewHealthCenter/tabid/104/language/en-US/Default.aspx","DENTAL_PHONE":"N/A","FULL_ADDRESS":"841 E. Hunting Park Avenue Suite 201","GlobalID":"ba3174e1-af8d-4696-824d-59fe99448633"}},{"type":"Feature","id":8,"geometry":{"type":"Point","coordinates":[-75.11434117213471,39.99602685527117]},"properties":{"OBJECTID":8,"NAME":"Esperanza Health Center - main (Kensington Avenue)","ORGANIZATION":"Esperanza","ZIP":19134,"PHONE":"215-831-1100","WEBSITE":"http://www.esperanzahealthcenter.org/","DENTAL_PHONE":"215-831-1100","FULL_ADDRESS":"3156 Kensington Ave ","GlobalID":"1b54a3b8-22ec-4854-860e-e2ffa6ecde8f"}},{"type":"Feature","id":9,"geometry":{"type":"Point","coordinates":[-75.14096884263711,39.98885339827265]},"properties":{"OBJECTID":9,"NAME":"Esperanza Health Center  (Fifth Street)","ORGANIZATION":"Esperanza","ZIP":19133,"PHONE":"215-221-6633","WEBSITE":"http://www.esperanzahealthcenter.org/","DENTAL_PHONE":"N/A","FULL_ADDRESS":"2490 North 5th Street ","GlobalID":"c5867a76-9907-480e-88e4-f4add30f31e2"}},{"type":"Feature","id":10,"geometry":{"type":"Point","coordinates":[-75.13685788784527,40.01909909565399]},"properties":{"OBJECTID":10,"NAME":"Hunting Park","ORGANIZATION":"Esperanza","ZIP":19140,"PHONE":"215-302-3600","WEBSITE":"http://www.esperanzahealthcenter.org/","DENTAL_PHONE":"N/A","FULL_ADDRESS":"4417 N. 6th Street","GlobalID":"d3cf993c-fe87-4f38-81ec-9eab7edeace6"}},{"type":"Feature","id":11,"geometry":{"type":"Point","coordinates":[-75.22914661145322,39.929138086213264]},"properties":{"OBJECTID":11,"NAME":"The Health Annex","ORGANIZATION":"FPCN","ZIP":19143,"PHONE":"215-727-4721","WEBSITE":"http://www.fpcn.com/","DENTAL_PHONE":"215-727-4721","FULL_ADDRESS":"6120 Woodland Avenue ","GlobalID":"15f88623-bd77-4017-98f5-ef625d03ca07"}},{"type":"Feature","id":12,"geometry":{"type":"Point","coordinates":[-75.15481566300319,39.96796882286366]},"properties":{"OBJECTID":12,"NAME":"Eleventh Street Health Services of Drexel University","ORGANIZATION":"FPCN","ZIP":19123,"PHONE":"215-769-1100","WEBSITE":"http://www.fpcn.com/","DENTAL_PHONE":"215-769-1100","FULL_ADDRESS":"850 North 11th Street","GlobalID":"81a52b51-aba9-42e3-a6be-2a38a31debb3"}},{"type":"Feature","id":13,"geometry":{"type":"Point","coordinates":[-75.17151013050896,40.016826796254215]},"properties":{"OBJECTID":13,"NAME":"Abbotsford Falls  Family Practice and Counseling","ORGANIZATION":"FPCN","ZIP":19144,"PHONE":"215-843-9720","WEBSITE":"http://www.fpcn.com/","DENTAL_PHONE":"N/A","FULL_ADDRESS":"4700 Wissahickon Ave Building D, Suite 119","GlobalID":"634e4329-2626-4621-bdaf-6655382f1355"}},{"type":"Feature","id":14,"geometry":{"type":"Point","coordinates":[-75.21451243472748,39.93942624132836]},"properties":{"OBJECTID":14,"NAME":"Woodland Avenue Medical Center","ORGANIZATION":"GPHA","ZIP":19143,"PHONE":"215-726-9807","WEBSITE":"http://www.gphainc.org/sitesMap.asp","DENTAL_PHONE":"215-726-9807","FULL_ADDRESS":"5000 Woodland Avenue","GlobalID":"bce30036-049f-4cd7-9825-059a10017bf0"}},{"type":"Feature","id":15,"geometry":{"type":"Point","coordinates":[-75.15715656958118,39.935908703170014]},"properties":{"OBJECTID":15,"NAME":"Southeast Health Center","ORGANIZATION":"GPHA","ZIP":19147,"PHONE":"215-339-5100","WEBSITE":"http://www.gphainc.org/sitesMap.asp","DENTAL_PHONE":"215-339-5100","FULL_ADDRESS":"800 Washington Avenue ","GlobalID":"eec51c25-fd92-4ab9-8bb7-cd1624637b54"}},{"type":"Feature","id":16,"geometry":{"type":"Point","coordinates":[-75.1882318767754,39.926701661331]},"properties":{"OBJECTID":16,"NAME":"Wilson Park Medical Center","ORGANIZATION":"GPHA","ZIP":19145,"PHONE":"215-755-7700","WEBSITE":"http://www.gphainc.org/sitesMap.asp","DENTAL_PHONE":"215-755-6866","FULL_ADDRESS":"2520 Snyder Avenue","GlobalID":"0788b09e-a608-49eb-b020-c98543fae317"}},{"type":"Feature","id":17,"geometry":{"type":"Point","coordinates":[-75.15947510241664,39.93653797302253]},"properties":{"OBJECTID":17,"NAME":"Chinatown Medical Services","ORGANIZATION":"GPHA","ZIP":19140,"PHONE":"215-627-8000","WEBSITE":"http://www.gphainc.org/sitesMap.asp","DENTAL_PHONE":"N/A","FULL_ADDRESS":"930 Washington Avenue","GlobalID":"5a9961b6-7f32-4f26-980e-a3b00c7f2309"}},{"type":"Feature","id":18,"geometry":{"type":"Point","coordinates":[-75.15158155839353,39.93060098215784]},"properties":{"OBJECTID":18,"NAME":"4th Street Medical Suite","ORGANIZATION":"GPHA","ZIP":19147,"PHONE":"215-339-1079","WEBSITE":"http://www.gphainc.org/sitesMap.asp","DENTAL_PHONE":"N/A","FULL_ADDRESS":"1401 South 4th Street","GlobalID":"3862c6ae-644a-40b7-b611-711ef2b98f9f"}},{"type":"Feature","id":19,"geometry":{"type":"Point","coordinates":[-75.08613385069305,40.01421471041962]},"properties":{"OBJECTID":19,"NAME":"Frankford Avenue Health Center","ORGANIZATION":"GPHA","ZIP":19124,"PHONE":"215-744-1302","WEBSITE":"http://www.gphainc.org/sitesMap.asp","DENTAL_PHONE":"215-535-1990","FULL_ADDRESS":"4510 Frankford Avenue","GlobalID":"4e17c0c3-be02-4b06-bb9e-fa966a3db3e6"}},{"type":"Feature","id":20,"geometry":{"type":"Point","coordinates":[-75.22060385386469,39.93531021988579]},"properties":{"OBJECTID":20,"NAME":"Greater Philadelphia Health Action, Inc. Dental and Behavorial Healthcare","ORGANIZATION":"GPHA","ZIP":19143,"PHONE":"215-724-4700","WEBSITE":"http://www.gphainc.org/sitesMap.asp","DENTAL_PHONE":"215-724-4700","FULL_ADDRESS":"5501 Woodland Avenue","GlobalID":"39760811-7705-4c11-bfa2-8d2f2f6b57ef"}},{"type":"Feature","id":21,"geometry":{"type":"Point","coordinates":[-75.15790815523027,39.92279566528035]},"properties":{"OBJECTID":21,"NAME":"Snyder Avenue Dental Center","ORGANIZATION":"GPHA","ZIP":19148,"PHONE":"215-334-4900","WEBSITE":"http://www.gphainc.org/sitesMap.asp","DENTAL_PHONE":"215-334-4900","FULL_ADDRESS":"640 Snyder Avenue","GlobalID":"7df0bf23-a62e-4a63-962d-21423c9e1f6d"}},{"type":"Feature","id":22,"geometry":{"type":"Point","coordinates":[-75.13539194711262,39.99305827684326]},"properties":{"OBJECTID":22,"NAME":"Congreso Health Center","ORGANIZATION":"PHMC","ZIP":19133,"PHONE":"267-765-2272","WEBSITE":"http://www.phmc.org/site/programs/health-care-centers/congreso-health-center","DENTAL_PHONE":"N/A","FULL_ADDRESS":"216 West Somerset Street","GlobalID":"7bac94b0-86e8-487b-9383-cd8a5400e0d5"}},{"type":"Feature","id":23,"geometry":{"type":"Point","coordinates":[-75.15896406077998,39.95915620666057]},"properties":{"OBJECTID":23,"NAME":"PHMC Care Clinic","ORGANIZATION":"PHMC","ZIP":19123,"PHONE":"215-825-8220","WEBSITE":"http://www.phmc.org/site/programs/health-care-centers/375-phmc-care-clinic","DENTAL_PHONE":"N/A","FULL_ADDRESS":"1200 Callowhill Street Suite 101","GlobalID":"d91fbb17-647b-48ce-8fed-2cdd2a67c5e8"}},{"type":"Feature","id":24,"geometry":{"type":"Point","coordinates":[-75.15564960611833,39.94887480039416]},"properties":{"OBJECTID":24,"NAME":"Mary Howard Health Center","ORGANIZATION":"PHMC","ZIP":19107,"PHONE":"215-592-4500","WEBSITE":"http://www.phmc.org/site/programs/health-care-centers/mary-howard","DENTAL_PHONE":"N/A","FULL_ADDRESS":"125 South 9th Street","GlobalID":"03f27da2-f57f-4635-bcac-018922937ddd"}},{"type":"Feature","id":25,"geometry":{"type":"Point","coordinates":[-75.1486463637211,39.98137769484665]},"properties":{"OBJECTID":25,"NAME":"PHMC Health Connection","ORGANIZATION":"PHMC","ZIP":19122,"PHONE":"215-765-6690","WEBSITE":"http://www.phmc.org/site/programs/health-care-centers/phmc-health-connection","DENTAL_PHONE":"N/A","FULL_ADDRESS":"1900 North 9th Street","GlobalID":"3b3446d6-905d-4190-b224-44e98f03f9fb"}},{"type":"Feature","id":26,"geometry":{"type":"Point","coordinates":[-75.12100519110847,40.036807000101014]},"properties":{"OBJECTID":26,"NAME":"Rising Sun Health Center","ORGANIZATION":"PHMC","ZIP":19120,"PHONE":"215-279-9666","WEBSITE":"http://www.phmc.org/site/programs/health-care-centers/rising-sun","DENTAL_PHONE":"N/A","FULL_ADDRESS":"5675 North Front Street","GlobalID":"95bd5048-67a0-4b68-9475-7ec5e6305a07"}},{"type":"Feature","id":27,"geometry":{"type":"Point","coordinates":[-75.1649852396691,39.97819012378496]},"properties":{"OBJECTID":27,"NAME":"Meade Family Health Center","ORGANIZATION":"QCHC","ZIP":19121,"PHONE":"215-765-9501","WEBSITE":"http://www.qchc.org/AboutUs.htm","DENTAL_PHONE":"215-765-9501","FULL_ADDRESS":"1800 West Oxford Street","GlobalID":"1c1847ba-edf1-4c23-a83b-8e5716ec6239"}},{"type":"Feature","id":28,"geometry":{"type":"Point","coordinates":[-75.17247426841163,39.996324716558476]},"properties":{"OBJECTID":28,"NAME":"QCHC Family Health Center","ORGANIZATION":"QCHC","ZIP":19132,"PHONE":"215-227-0300","WEBSITE":"http://www.qchc.org/AboutUs.htm","DENTAL_PHONE":"215-227-0300","FULL_ADDRESS":"2501 West Lehigh Avenue","GlobalID":"f404b9da-d76a-433c-8b9b-55941791fc65"}},{"type":"Feature","id":29,"geometry":{"type":"Point","coordinates":[-75.17422576479065,39.976434641101214]},"properties":{"OBJECTID":29,"NAME":"Vaux Family Health Center","ORGANIZATION":"QCHC","ZIP":19121,"PHONE":"215-236-8289","WEBSITE":"http://www.qchc.org/AboutUs.htm","DENTAL_PHONE":"215-236-8289","FULL_ADDRESS":"2300 West Master Street","GlobalID":"8b90df81-3e12-4fce-9d58-ef3e9c0a905a"}},{"type":"Feature","id":30,"geometry":{"type":"Point","coordinates":[-75.14541272394648,40.02582565641083]},"properties":{"OBJECTID":30,"NAME":"Cooke Family Health Center","ORGANIZATION":"QCHC","ZIP":19141,"PHONE":"215-457-6902","WEBSITE":"http://www.qchc.org/AboutUs.htm","DENTAL_PHONE":"215-457-6902","FULL_ADDRESS":"1300 West Loudon Street","GlobalID":"bd52f455-ca2f-4748-9f84-246756a61903"}},{"type":"Feature","id":31,"geometry":{"type":"Point","coordinates":[-75.23845290746262,39.95849706938802]},"properties":{"OBJECTID":31,"NAME":"Sayre Health Center","ORGANIZATION":"Sayre-Penn","ZIP":19139,"PHONE":"215-474-4444","WEBSITE":"http://www.sayrehealth.org/","DENTAL_PHONE":"N/A","FULL_ADDRESS":"5800 Walnut St","GlobalID":"b7176b4d-5ac1-44fd-952f-0b648ebdab32"}},{"type":"Feature","id":32,"geometry":{"type":"Point","coordinates":[-75.22519423269767,39.96527346674074]},"properties":{"OBJECTID":32,"NAME":"Spectrum Health Center","ORGANIZATION":"Spectrum","ZIP":19139,"PHONE":"215-471-2761","WEBSITE":"http://www.spechealth.org/index.php/home/location","DENTAL_PHONE":"215-471-2761","FULL_ADDRESS":"5201 Haverford Ave","GlobalID":"0e19a7b1-b1bd-4d63-86a7-f9690f8a7016"}},{"type":"Feature","id":33,"geometry":{"type":"Point","coordinates":[-75.15853319340155,39.97509020819186]},"properties":{"OBJECTID":33,"NAME":"Broad Street Health Center","ORGANIZATION":"Spectrum","ZIP":19122,"PHONE":"215-235-7944","WEBSITE":"http://www.spechealth.org/index.php/home/location","DENTAL_PHONE":"N/A","FULL_ADDRESS":"1415 North Broad Street  Progress Human Service B*","GlobalID":"c8519687-2e14-4874-bfb3-e76dea2f9b46"}},{"type":"Feature","id":34,"geometry":{"type":"Point","coordinates":[-75.16942005542143,39.926215768562784]},"properties":{"OBJECTID":34,"NAME":"Health Center 2","ORGANIZATION":"PDPH","ZIP":19145,"PHONE":"215-685-1803","WEBSITE":"http://www.phila.gov/health/AmbulatoryHealth/hc2.html","DENTAL_PHONE":"215-685-1822","FULL_ADDRESS":"1930 South Broad Street Constitution Health Plaza*","GlobalID":"fcda8ca0-b809-46b0-a36d-94510e067ab2"}},{"type":"Feature","id":35,"geometry":{"type":"Point","coordinates":[-75.2090611482929,39.948773378584555]},"properties":{"OBJECTID":35,"NAME":"Health Center 3","ORGANIZATION":"PDPH","ZIP":19104,"PHONE":"215-685-7504","WEBSITE":"http://www.phila.gov/health/AmbulatoryHealth/hc3.html","DENTAL_PHONE":"215-685-7506","FULL_ADDRESS":"555 S. 43rd Street","GlobalID":"3695a776-9709-4d2f-91e9-b2da3fc2b385"}},{"type":"Feature","id":36,"geometry":{"type":"Point","coordinates":[-75.21093909601953,39.96253704861975]},"properties":{"OBJECTID":36,"NAME":"Health Center 4","ORGANIZATION":"PDPH","ZIP":19104,"PHONE":"215-685-7601","WEBSITE":"http://www.phila.gov/health/AmbulatoryHealth/hc4.html","DENTAL_PHONE":"215-685-7605","FULL_ADDRESS":"4400 Haverford Avenue","GlobalID":"479c2b78-b223-4261-aeb6-6f9728cdadf2"}},{"type":"Feature","id":37,"geometry":{"type":"Point","coordinates":[-75.16676954566474,39.98310249203903]},"properties":{"OBJECTID":37,"NAME":"Health Center 5","ORGANIZATION":"PDPH","ZIP":19121,"PHONE":"215-685-2933","WEBSITE":"http://www.phila.gov/health/AmbulatoryHealth/hc5.html","DENTAL_PHONE":"215-685-2938","FULL_ADDRESS":"1900 N. 20th Street","GlobalID":"9f7f6943-8207-4a4f-bf00-24bf8cdd15f0"}},{"type":"Feature","id":38,"geometry":{"type":"Point","coordinates":[-75.14194872619417,39.969906456038736]},"properties":{"OBJECTID":38,"NAME":"Health Center 6","ORGANIZATION":"PDPH","ZIP":19123,"PHONE":"215-685-3803","WEBSITE":"http://www.phila.gov/health/AmbulatoryHealth/hc6.html","DENTAL_PHONE":"215-685-3816","FULL_ADDRESS":"301 W. Girard Avenue","GlobalID":"c142cd3c-48b3-4ebf-9d87-8f5b52c4eaec"}},{"type":"Feature","id":39,"geometry":{"type":"Point","coordinates":[-75.17274028903657,40.037870438777105]},"properties":{"OBJECTID":39,"NAME":"Health Center 9","ORGANIZATION":"PDPH","ZIP":19144,"PHONE":"215-685-5701","WEBSITE":"http://www.phila.gov/health/AmbulatoryHealth/hc9.html","DENTAL_PHONE":"215-685-5738","FULL_ADDRESS":"131 E. Chelten Avenue","GlobalID":"19b6243d-e856-423a-b399-5da77af67d6d"}},{"type":"Feature","id":40,"geometry":{"type":"Point","coordinates":[-75.06128587784546,40.0483564174986]},"properties":{"OBJECTID":40,"NAME":"Health Center 10","ORGANIZATION":"PDPH","ZIP":19149,"PHONE":"215-685-0639","WEBSITE":"http://www.phila.gov/health/AmbulatoryHealth/hc10.html","DENTAL_PHONE":"215-685-0608","FULL_ADDRESS":"2230 Cottman Avenue","GlobalID":"e6c7797a-48e9-4c92-b046-a8015c3218ab"}},{"type":"Feature","id":41,"geometry":{"type":"Point","coordinates":[-75.17906900528597,39.99083145022918]},"properties":{"OBJECTID":41,"NAME":"Strawberry Mansion Health Center","ORGANIZATION":"PDPH","ZIP":19132,"PHONE":"215-685-2401","WEBSITE":"http://www.phila.gov/health/AmbulatoryHealth/hcStrawberry.html","DENTAL_PHONE":"N/A","FULL_ADDRESS":"2840 Dauphin Street","GlobalID":"aeb37ac8-a5fe-4616-9b46-6cc699a9d084"}},{"type":"Feature","id":42,"geometry":{"type":"Point","coordinates":[-75.1737357187147,40.0094609954697]},"properties":{"OBJECTID":42,"NAME":"Qcare Convenient Care Clinic @ Shoprite","ORGANIZATION":"FPCN","ZIP":19120,"PHONE":"267-597-3610","WEBSITE":"http://www.fpcn.com/?page_id=128","DENTAL_PHONE":"N/A","FULL_ADDRESS":"2800 Fox Street Unit A","GlobalID":"88c21f8d-90a6-41d5-bf2f-d6772418e509"}},{"type":"Feature","id":43,"geometry":{"type":"Point","coordinates":[-75.16085682863385,40.01276232515341]},"properties":{"OBJECTID":43,"NAME":"Hunting Park Health & Dental Center ","ORGANIZATION":"GPHA","ZIP":19140,"PHONE":"215-228-9300","WEBSITE":"http://www.gphainc.org/sitesMap.asp","DENTAL_PHONE":"215-229-1390","FULL_ADDRESS":"1999 W. Hunting Park Avenue","GlobalID":"434d2949-81a8-49d9-9b17-745f6ca85a83"}},{"type":"Feature","id":44,"geometry":{"type":"Point","coordinates":[-75.1680284452564,39.9326274852574]},"properties":{"OBJECTID":44,"NAME":"Urban Health Initiatives","ORGANIZATION":"Urban Health Initiatives","ZIP":19146,"PHONE":"215-755-0700 x1","WEBSITE":"http://www.myuhi.org/","DENTAL_PHONE":"N/A ","FULL_ADDRESS":"1408 South Broad Street","GlobalID":"94f511f8-5175-42ba-8b38-64dddba18937"}},{"type":"Feature","id":45,"geometry":{"type":"Point","coordinates":[-75.1702277320638,39.98023361968439]},"properties":{"OBJECTID":45,"NAME":"Stephen Klein Wellness Center","ORGANIZATION":"Project HOME","ZIP":19121,"PHONE":"215-320-6187","WEBSITE":"https://projecthome.org/skwc","DENTAL_PHONE":"215-320-6187","FULL_ADDRESS":"2144 Cecil B Moore Ave","GlobalID":"43378c27-ad20-42d8-aa37-da0faa54cf5e"}}],"name":"GIS_HEALTH.Health_Centers","updated_at":1439141714000,"retrieved_at":1439323938285,"expires_at":1439410338285,"count":45}